[
    {
        "name": "John Doe",
        "state": "California",
        "city": "San Francisco",
        "date": "2025-01-24",
        "details": "Donated 10 units of blood.",
        "images": "",
        "lat": 37.7749,
        "lng": -122.4194
    },
    {
        "name": "Jane Smith",
        "state": "New York",
        "city": "New York City",
        "date": "2024-12-09",
        "details": "Donated 5 units of blood.",
        "images": "",
        "lat": 40.7128,
        "lng": -74.0060
    },
    {
        "name": "Jeremy Maker",
        "state": "Missouri",
        "city": "Kansas City",
        "date": "2024-06-03",
        "details": "Test dono",
        "images": "",
        "lat": 39.0997,
        "lng": -94.5786
    },
    {
        "name": "Vinton Smith",
        "state": "Pennsylvania",
        "city": "Gettysburg",
        "date": "2025-01-01",
        "details": "Test donation",
        "images": "",
        "lat": 39.8309,
        "lng": -77.2311
    },
    {
        "name": "Collin Smith",
        "state": "California",
        "city": "Sacramento",
        "date": "2024-08-20",
        "details": "Test",
        "images": "",
        "lat": 38.5781,
        "lng": -121.4944
    },
    {
        "name": "Jane Smith",
        "state": "Texas",
        "city": "Houston",
        "date": "2025-06-10",
        "details": "Donated 3 units of blood.",
        "images": "",
        "lat": 26.3307,
        "lng": -106.9693
    },
    {
        "name": "Alex Brown",
        "state": "Oklahoma",
        "city": "Oklahoma City",
        "date": "2025-03-18",
        "details": "Donated 10 units of blood.",
        "images": "",
        "lat": 46.2349,
        "lng": -122.7245
    },
    {
        "name": "Jane Smith",
        "state": "Kansas",
        "city": "Wichita",
        "date": "2025-09-24",
        "details": "Donated 9 units of blood.",
        "images": "",
        "lat": 28.6943,
        "lng": -106.3643
    },
    {
        "name": "Taylor Green",
        "state": "New Mexico",
        "city": "Albuquerque",
        "date": "2024-12-20",
        "details": "Donated 6 units of blood.",
        "images": "",
        "lat": 32.7763,
        "lng": -118.7417
    },
    {
        "name": "Jane Smith",
        "state": "Massachusetts",
        "city": "Boston",
        "date": "2024-10-08",
        "details": "Donated 10 units of blood.",
        "images": "",
        "lat": 44.1167,
        "lng": -109.4414
    },
    {
        "name": "Chris White",
        "state": "New Jersey",
        "city": "Newark",
        "date": "2024-10-02",
        "details": "Donated 1 units of blood.",
        "images": "",
        "lat": 28.5878,
        "lng": -123.7504
    },
    {
        "name": "Jane Smith",
        "state": "Mississippi",
        "city": "City in Mississippi",
        "date": "2025-03-18",
        "details": "Donated 10 units of blood.",
        "images": "",
        "lat": 39.8489,
        "lng": -89.9316
    },
    {
        "name": "Jane Smith",
        "state": "Tennessee",
        "city": "City in Tennessee",
        "date": "2024-07-25",
        "details": "Donated 5 units of blood.",
        "images": "",
        "lat": 35.4148,
        "lng": -78.3283
    },
    {
        "name": "Chris White",
        "state": "Maine",
        "city": "City in Maine",
        "date": "2025-04-13",
        "details": "Donated 6 units of blood.",
        "images": "",
        "lat": 27.9264,
        "lng": -68.2784
    },
    {
        "name": "Jane Smith",
        "state": "Nebraska",
        "city": "City in Nebraska",
        "date": "2024-12-09",
        "details": "Donated 5 units of blood.",
        "images": "",
        "lat": 45.3787,
        "lng": -106.8451
    },
    {
        "name": "John Doe",
        "state": "Alaska",
        "city": "Anchorage",
        "date": "2025-09-24",
        "details": "Donated 1 units of blood.",
        "images": "",
        "lat": 46.9307,
        "lng": -108.9539
    },
    {
        "name": "Chris White",
        "state": "North Dakota",
        "city": "City in North Dakota",
        "date": "2024-06-04",
        "details": "Donated 1 units of blood.",
        "images": "",
        "lat": 45.2872,
        "lng": -83.7644
    },
    {
        "name": "Chris White",
        "state": "Georgia",
        "city": "City in Georgia",
        "date": "2025-02-21",
        "details": "Donated 6 units of blood.",
        "images": "",
        "lat": 45.7247,
        "lng": -89.971
    },
    {
        "name": "John Doe",
        "state": "Washington",
        "city": "City in Washington",
        "date": "2024-12-28",
        "details": "Donated 3 units of blood.",
        "images": "",
        "lat": 44.7711,
        "lng": -83.6057
    },
    {
        "name": "John Doe",
        "state": "New Hampshire",
        "city": "City in New Hampshire",
        "date": "2024-10-06",
        "details": "Donated 3 units of blood.",
        "images": "",
        "lat": 33.8546,
        "lng": -108.5566
    },
    {
        "name": "Alex Brown",
        "state": "Arizona",
        "city": "City in Arizona",
        "date": "2025-10-19",
        "details": "Donated 3 units of blood.",
        "images": "",
        "lat": 31.283,
        "lng": -98.7795
    },
    {
        "name": "Alex Brown",
        "state": "Maryland",
        "city": "City in Maryland",
        "date": "2024-02-25",
        "details": "Donated 9 units of blood.",
        "images": "",
        "lat": 33.6008,
        "lng": -112.3452
    },
    {
        "name": "Alex Brown",
        "state": "Louisiana",
        "city": "City in Louisiana",
        "date": "2024-11-20",
        "details": "Donated 8 units of blood.",
        "images": "",
        "lat": 25.1349,
        "lng": -107.4068
    },
    {
        "name": "Alex Brown",
        "state": "New York",
        "city": "City in New York",
        "date": "2025-12-20",
        "details": "Donated 5 units of blood.",
        "images": "",
        "lat": 38.623,
        "lng": -98.32
    },
    {
        "name": "John Doe",
        "state": "Tennessee",
        "city": "City in Tennessee",
        "date": "2025-10-21",
        "details": "Donated 2 units of blood.",
        "images": "",
        "lat": 33.3161,
        "lng": -118.1301
    },
    {
        "name": "Jane Smith",
        "state": "Arkansas",
        "city": "City in Arkansas",
        "date": "2025-06-26",
        "details": "Donated 2 units of blood.",
        "images": "",
        "lat": 33.4881,
        "lng": -83.5766
    },
    {
        "name": "Jane Smith",
        "state": "Connecticut",
        "city": "City in Connecticut",
        "date": "2024-09-06",
        "details": "Donated 4 units of blood.",
        "images": "",
        "lat": 41.0474,
        "lng": -78.9465
    },
    {
        "name": "Jane Smith",
        "state": "Delaware",
        "city": "City in Delaware",
        "date": "2024-06-23",
        "details": "Donated 1 units of blood.",
        "images": "",
        "lat": 27.2994,
        "lng": -74.2784
    },
    {
        "name": "Jane Smith",
        "state": "Iowa",
        "city": "City in Iowa",
        "date": "2024-01-18",
        "details": "Donated 9 units of blood.",
        "images": "",
        "lat": 25.0643,
        "lng": -118.8428
    },
    {
        "name": "Jane Smith",
        "state": "Hawaii",
        "city": "City in Hawaii",
        "date": "2025-01-28",
        "details": "Donated 2 units of blood.",
        "images": "",
        "lat": 27.2125,
        "lng": -101.7547
    },
    {
        "name": "Taylor Green",
        "state": "Rhode Island",
        "city": "City in Rhode Island",
        "date": "2024-10-10",
        "details": "Donated 3 units of blood.",
        "images": "",
        "lat": 35.2571,
        "lng": -108.4539
    },
    {
        "name": "Alex Brown",
        "state": "Wisconsin",
        "city": "City in Wisconsin",
        "date": "2025-03-27",
        "details": "Donated 5 units of blood.",
        "images": "",
        "lat": 36.931,
        "lng": -75.1069
    },
    {
        "name": "Jane Smith",
        "state": "Alabama",
        "city": "City in Alabama",
        "date": "2025-05-26",
        "details": "Donated 1 units of blood.",
        "images": "",
        "lat": 38.2435,
        "lng": -98.5373
    },
    {
        "name": "Alex Brown",
        "state": "South Dakota",
        "city": "City in South Dakota",
        "date": "2024-01-27",
        "details": "Donated 4 units of blood.",
        "images": "",
        "lat": 47.0245,
        "lng": -81.1491
    },
    {
        "name": "Jane Smith",
        "state": "North Carolina",
        "city": "City in North Carolina",
        "date": "2024-08-13",
        "details": "Donated 1 units of blood.",
        "images": "",
        "lat": 31.8057,
        "lng": -100.3833
    },
    {
        "name": "Alex Brown",
        "state": "New York",
        "city": "City in New York",
        "date": "2024-05-27",
        "details": "Donated 4 units of blood.",
        "images": "",
        "lat": 26.1899,
        "lng": -102.5976
    },
    {
        "name": "Alex Brown",
        "state": "Vermont",
        "city": "City in Vermont",
        "date": "2025-01-13",
        "details": "Donated 4 units of blood.",
        "images": "",
        "lat": 26.209,
        "lng": -75.5602
    },
    {
        "name": "Alex Brown",
        "state": "Idaho",
        "city": "City in Idaho",
        "date": "2024-08-11",
        "details": "Donated 5 units of blood.",
        "images": "",
        "lat": 46.1409,
        "lng": -76.3188
    },
    {
        "name": "Jane Smith",
        "state": "Idaho",
        "city": "City in Idaho",
        "date": "2025-01-11",
        "details": "Donated 8 units of blood.",
        "images": "",
        "lat": 42.7402,
        "lng": -74.9992
    },
    {
        "name": "Jane Smith",
        "state": "Florida",
        "city": "City in Florida",
        "date": "2024-08-16",
        "details": "Donated 2 units of blood.",
        "images": "",
        "lat": 35.4199,
        "lng": -108.3564
    },
    {
        "name": "Taylor Green",
        "state": "Utah",
        "city": "City in Utah",
        "date": "2025-03-03",
        "details": "Donated 2 units of blood.",
        "images": "",
        "lat": 46.5291,
        "lng": -124.894
    },
    {
        "name": "John Doe",
        "state": "Ohio",
        "city": "City in Ohio",
        "date": "2024-01-10",
        "details": "Donated 2 units of blood.",
        "images": "",
        "lat": 45.3013,
        "lng": -67.2334
    },
    {
        "name": "John Doe",
        "state": "Virginia",
        "city": "City in Virginia",
        "date": "2024-07-22",
        "details": "Donated 1 units of blood.",
        "images": "",
        "lat": 32.1013,
        "lng": -83.6559
    },
    {
        "name": "Alex Brown",
        "state": "Virginia",
        "city": "City in Virginia",
        "date": "2025-06-06",
        "details": "Donated 1 units of blood.",
        "images": "",
        "lat": 27.3071,
        "lng": -104.8574
    },
    {
        "name": "John Doe",
        "state": "Massachusetts",
        "city": "Boston",
        "date": "2025-11-13",
        "details": "Donated 4 units of blood.",
        "images": "",
        "lat": 47.5935,
        "lng": -106.1486
    },
    {
        "name": "Taylor Green",
        "state": "Nebraska",
        "city": "City in Nebraska",
        "date": "2024-09-15",
        "details": "Donated 3 units of blood.",
        "images": "",
        "lat": 40.1404,
        "lng": -86.6187
    },
    {
        "name": "Alex Brown",
        "state": "Vermont",
        "city": "City in Vermont",
        "date": "2025-10-06",
        "details": "Donated 6 units of blood.",
        "images": "",
        "lat": 27.5271,
        "lng": -121.6525
    },
    {
        "name": "Chris White",
        "state": "Ohio",
        "city": "City in Ohio",
        "date": "2024-06-02",
        "details": "Donated 10 units of blood.",
        "images": "",
        "lat": 48.6245,
        "lng": -98.2762
    },
    {
        "name": "John Doe",
        "state": "Nevada",
        "city": "City in Nevada",
        "date": "2025-10-23",
        "details": "Donated 6 units of blood.",
        "images": "",
        "lat": 38.2579,
        "lng": -100.5645
    },
    {
        "name": "Taylor Green",
        "state": "Oregon",
        "city": "City in Oregon",
        "date": "2024-07-13",
        "details": "Donated 9 units of blood.",
        "images": "",
        "lat": 28.9048,
        "lng": -123.7075
    },
    {
        "name": "Alex Brown",
        "state": "South Carolina",
        "city": "City in South Carolina",
        "date": "2025-09-13",
        "details": "Donated 4 units of blood.",
        "images": "",
        "lat": 25.0893,
        "lng": -75.4146
    },
    {
        "name": "Taylor Green",
        "state": "Missouri",
        "city": "City in Missouri",
        "date": "2025-06-18",
        "details": "Donated 6 units of blood.",
        "images": "",
        "lat": 42.161,
        "lng": -85.3826
    },
    {
        "name": "John Doe",
        "state": "Michigan",
        "city": "City in Michigan",
        "date": "2025-11-17",
        "details": "Donated 10 units of blood.",
        "images": "",
        "lat": 28.5806,
        "lng": -96.2591
    },
    {
        "name": "John Doe",
        "state": "Delaware",
        "city": "City in Delaware",
        "date": "2024-09-11",
        "details": "Donated 3 units of blood.",
        "images": "",
        "lat": 32.0833,
        "lng": -103.5048
    },
    {
        "name": "Chris White",
        "state": "Rhode Island",
        "city": "City in Rhode Island",
        "date": "2025-06-13",
        "details": "Donated 7 units of blood.",
        "images": "",
        "lat": 25.2428,
        "lng": -112.4034
    },
    {
        "name": "Taylor Green",
        "state": "Pennsylvania",
        "city": "City in Pennsylvania",
        "date": "2025-09-05",
        "details": "Donated 8 units of blood.",
        "images": "",
        "lat": 30.2908,
        "lng": -82.1343
    },
    {
        "name": "Jane Smith",
        "state": "Washington",
        "city": "City in Washington",
        "date": "2024-10-12",
        "details": "Donated 9 units of blood.",
        "images": "",
        "lat": 30.7037,
        "lng": -93.2582
    },
    {
        "name": "Jane Smith",
        "state": "Wyoming",
        "city": "City in Wyoming",
        "date": "2024-10-10",
        "details": "Donated 10 units of blood.",
        "images": "",
        "lat": 28.7854,
        "lng": -93.6299
    },
    {
        "name": "Alex Brown",
        "state": "Kentucky",
        "city": "City in Kentucky",
        "date": "2024-03-16",
        "details": "Donated 9 units of blood.",
        "images": "",
        "lat": 27.4439,
        "lng": -82.9704
    },
    {
        "name": "John Doe",
        "state": "Montana",
        "city": "City in Montana",
        "date": "2024-07-13",
        "details": "Donated 10 units of blood.",
        "images": "",
        "lat": 27.3236,
        "lng": -124.7969
    },
    {
        "name": "John Doe",
        "state": "Maryland",
        "city": "City in Maryland",
        "date": "2024-02-07",
        "details": "Donated 3 units of blood.",
        "images": "",
        "lat": 48.1738,
        "lng": -107.2592
    },
    {
        "name": "John Doe",
        "state": "West Virginia",
        "city": "City in West Virginia",
        "date": "2025-03-15",
        "details": "Donated 2 units of blood.",
        "images": "",
        "lat": 34.8172,
        "lng": -89.6955
    },
    {
        "name": "Taylor Green",
        "state": "Montana",
        "city": "City in Montana",
        "date": "2024-08-22",
        "details": "Donated 7 units of blood.",
        "images": "",
        "lat": 27.5964,
        "lng": -116.296
    },
    {
        "name": "Jane Smith",
        "state": "Louisiana",
        "city": "City in Louisiana",
        "date": "2025-11-26",
        "details": "Donated 2 units of blood.",
        "images": "",
        "lat": 39.5654,
        "lng": -72.0605
    },
    {
        "name": "Jane Smith",
        "state": "Illinois",
        "city": "City in Illinois",
        "date": "2025-06-17",
        "details": "Donated 2 units of blood.",
        "images": "",
        "lat": 32.7631,
        "lng": -69.799
    },
    {
        "name": "Jane Smith",
        "state": "Missouri",
        "city": "City in Missouri",
        "date": "2025-04-16",
        "details": "Donated 6 units of blood.",
        "images": "",
        "lat": 39.351,
        "lng": -76.1864
    },
    {
        "name": "Chris White",
        "state": "Pennsylvania",
        "city": "City in Pennsylvania",
        "date": "2025-01-24",
        "details": "Donated 3 units of blood.",
        "images": "",
        "lat": 36.9688,
        "lng": -73.3661
    },
    {
        "name": "Taylor Green",
        "state": "Connecticut",
        "city": "City in Connecticut",
        "date": "2025-02-16",
        "details": "Donated 3 units of blood.",
        "images": "",
        "lat": 45.743,
        "lng": -101.3077
    },
    {
        "name": "Jane Smith",
        "state": "Minnesota",
        "city": "City in Minnesota",
        "date": "2025-11-08",
        "details": "Donated 1 units of blood.",
        "images": "",
        "lat": 45.075,
        "lng": -80.7583
    },
    {
        "name": "Alex Brown",
        "state": "Indiana",
        "city": "City in Indiana",
        "date": "2025-09-15",
        "details": "Donated 4 units of blood.",
        "images": "",
        "lat": 32.8873,
        "lng": -78.3866
    },
    {
        "name": "Jane Smith",
        "state": "Mississippi",
        "city": "City in Mississippi",
        "date": "2024-08-24",
        "details": "Donated 4 units of blood.",
        "images": "",
        "lat": 48.7771,
        "lng": -120.3866
    },
    {
        "name": "Chris White",
        "state": "Kansas",
        "city": "Wichita",
        "date": "2025-01-10",
        "details": "Donated 8 units of blood.",
        "images": "",
        "lat": 40.5842,
        "lng": -122.778
    },
    {
        "name": "Taylor Green",
        "state": "New Hampshire",
        "city": "City in New Hampshire",
        "date": "2025-01-23",
        "details": "Donated 3 units of blood.",
        "images": "",
        "lat": 45.8452,
        "lng": -105.0786
    },
    {
        "name": "John Doe",
        "state": "Alaska",
        "city": "Anchorage",
        "date": "2025-01-01",
        "details": "Donated 5 units of blood.",
        "images": "",
        "lat": 30.3936,
        "lng": -75.0316
    },
    {
    "name": "Vinton Smith",
    "state": "Pennsylvania",
    "city": "Gettysburg",
    "date": "2024-11-20",
    "details": "Donated in Gettysburg!",
    "images": "https://i.imgur.com/SwJj6OS.jpeg, https://i.imgur.com/wGf2QVn.jpeg",
    "lat": 39.8309,
    "lng": -77.2311
    },
    {
    "name": "Collin Smith",
    "state": "Pennsylvania",
    "city": "Harrisburg",
    "date": "2025-01-08",
    "details": "harrisburg coord test",
    "images": "",
    "lat": 40.2663107,
    "lng": -76.8861122
    },
    {
    "name": "Image Test",
    "state": "Nevada",
    "city": "Las Vegas",
    "date": "2025-01-16",
    "details": "LV NV image test",
    "images": "https://i.imgur.com/twDA2ps.jpeg",
    "lat": 36.1716,
    "lng": -115.1391
    },
    {
    "name": "Collin Smith",
    "state": "Pennsylvania",
    "city": "Cove Gap",
    "date": "2025-01-08",
    "details": "Test image",
    "images": "https://i.imgur.com/cg3MrFh.jpg",
    "lat": 39.8659242,
    "lng": -77.9424995
    },
{
"name": "Vinton Smith",
"state": "Colorado",
"city": "Denver",
"date": "2025-01-12",
"details": "whole blood",
"images": "",
"lat": 39.7392364,
"lng": -104.984862
}
]
